{
  "total": 14,
  "generated_at": "2025-10-23T18:21:15.876Z",
  "items": [
    {
      "id": "fKDYkXy8hmcp0bzymEHFFg",
      "name": "Rooh's BBQ Smoked Meat & Steakhouse",
      "alias": "roohs-bbq-smoked-meat-and-steakhouse-west-hempstead",
      "url": "https://www.yelp.com/biz/roohs-bbq-smoked-meat-and-steakhouse-west-hempstead?adjust_creative=S0_Na3BINI1ZPDtCFfQiZQ&utm_campaign=yelp_api_v3&utm_medium=api_v3_business_lookup&utm_source=S0_Na3BINI1ZPDtCFfQiZQ",
      "rating": 4.7,
      "review_count": 3,
      "is_closed": false,
      "phone": "+15162802896",
      "categories": [
        "bbq",
        "steak"
      ],
      "latitude": 40.705451040615394,
      "longitude": -73.65804679691792,
      "address": "495 Hempstead Tpke, West Hempstead, NY 11552",
      "city": "West Hempstead",
      "state": "NY",
      "country": "US",
      "zip_code": "11552",
      "match": "manual"
    },
    {
      "id": "4BU0R2NW_KWkq6mxx6SENg",
      "name": "Butter Smashburgers",
      "alias": "butter-smashburgers-new-york",
      "url": "https://www.yelp.com/biz/butter-smashburgers-new-york?adjust_creative=S0_Na3BINI1ZPDtCFfQiZQ&utm_campaign=yelp_api_v3&utm_medium=api_v3_business_lookup&utm_source=S0_Na3BINI1ZPDtCFfQiZQ",
      "rating": 4.2,
      "review_count": 40,
      "is_closed": false,
      "phone": null,
      "categories": [
        "burgers",
        "icecream"
      ],
      "latitude": 40.729407,
      "longitude": -74.000706,
      "address": "106 MacDougal St, New York, NY 10012",
      "city": "New York",
      "state": "NY",
      "country": "US",
      "zip_code": "10012",
      "match": "manual"
    },
    {
      "id": "Nlxn12mwBJaeoACQWf8CNA",
      "name": "Little Flower",
      "alias": "little-flower-astoria",
      "url": "https://www.yelp.com/biz/little-flower-astoria?adjust_creative=S0_Na3BINI1ZPDtCFfQiZQ&utm_campaign=yelp_api_v3&utm_medium=api_v3_business_lookup&utm_source=S0_Na3BINI1ZPDtCFfQiZQ",
      "rating": 4.5,
      "review_count": 163,
      "is_closed": false,
      "phone": null,
      "categories": [
        "coffee",
        "sandwiches",
        "cafes"
      ],
      "latitude": 40.75797,
      "longitude": -73.932117,
      "address": "25-35 36th Ave, Astoria, NY 11106",
      "city": "Astoria",
      "state": "NY",
      "country": "US",
      "zip_code": "11106",
      "match": "manual"
    },
    {
      "id": "_w0J-VMPlFVfr_w2Ec45LA",
      "name": "The Buttery",
      "alias": "the-buttery-staten-island",
      "url": "https://www.yelp.com/biz/the-buttery-staten-island?adjust_creative=S0_Na3BINI1ZPDtCFfQiZQ&utm_campaign=yelp_api_v3&utm_medium=api_v3_business_lookup&utm_source=S0_Na3BINI1ZPDtCFfQiZQ",
      "rating": 3.6,
      "review_count": 5,
      "is_closed": false,
      "phone": null,
      "categories": [
        "hotdog",
        "burgers",
        "icecream"
      ],
      "latitude": 40.613212,
      "longitude": -74.122276,
      "address": "1761 Victory Blvd, Staten Island, NY 10314",
      "city": "Staten Island",
      "state": "NY",
      "country": "US",
      "zip_code": "10314",
      "match": "manual"
    },
    {
      "id": "fyDB8jhiaxokPBqpaaFDLQ",
      "name": "ATL Wing Spot",
      "alias": "atl-wing-spot-lynbrook",
      "url": "https://www.yelp.com/biz/atl-wing-spot-lynbrook?adjust_creative=S0_Na3BINI1ZPDtCFfQiZQ&utm_campaign=yelp_api_v3&utm_medium=api_v3_business_lookup&utm_source=S0_Na3BINI1ZPDtCFfQiZQ",
      "rating": 4.6,
      "review_count": 69,
      "is_closed": false,
      "phone": "+15162182245",
      "categories": [
        "chicken_wings",
        "hotdogs",
        "halal"
      ],
      "latitude": 40.65507,
      "longitude": -73.67497,
      "address": "97 Broadway, Lynbrook, NY 11563",
      "city": "Lynbrook",
      "state": "NY",
      "country": "US",
      "zip_code": "11563",
      "match": "manual"
    },
    {
      "id": "bEWxmqltz6LZunk0vk5uaQ",
      "name": "ATL Wing Spot",
      "alias": "atl-wing-spot-east-meadow",
      "url": "https://www.yelp.com/biz/atl-wing-spot-east-meadow?adjust_creative=S0_Na3BINI1ZPDtCFfQiZQ&utm_campaign=yelp_api_v3&utm_medium=api_v3_business_lookup&utm_source=S0_Na3BINI1ZPDtCFfQiZQ",
      "rating": 4.3,
      "review_count": 10,
      "is_closed": false,
      "phone": null,
      "categories": [
        "chicken_wings",
        "halal",
        "hawaiian"
      ],
      "latitude": 40.71867756882027,
      "longitude": -73.5639506,
      "address": "1860 Front St, East Meadow, NY 11554",
      "city": "East Meadow",
      "state": "NY",
      "country": "US",
      "zip_code": "11554",
      "match": "manual"
    },
    {
      "id": "xIZP2-b_DwH4O2zcD2fLtA",
      "name": "Halal Munchies",
      "alias": "halal-munchies-brooklyn-5",
      "url": "https://www.yelp.com/biz/halal-munchies-brooklyn-5?adjust_creative=S0_Na3BINI1ZPDtCFfQiZQ&utm_campaign=yelp_api_v3&utm_medium=api_v3_business_lookup&utm_source=S0_Na3BINI1ZPDtCFfQiZQ",
      "rating": 3,
      "review_count": 4,
      "is_closed": false,
      "phone": "+17186366112",
      "categories": [
        "halal",
        "chicken_wings",
        "hotdogs"
      ],
      "latitude": 40.69329244499551,
      "longitude": -73.9663137,
      "address": "474 Myrtle Ave, Brooklyn, NY 11205",
      "city": "Brooklyn",
      "state": "NY",
      "country": "US",
      "zip_code": "11205",
      "match": "manual"
    },
    {
      "id": "FPgZHlW6Yh3JaxQQuB2MeA",
      "name": "Steiny B's Smashburgers",
      "alias": "steiny-bs-smashburgers-brooklyn",
      "url": "https://www.yelp.com/biz/steiny-bs-smashburgers-brooklyn?adjust_creative=S0_Na3BINI1ZPDtCFfQiZQ&utm_campaign=yelp_api_v3&utm_medium=api_v3_business_lookup&utm_source=S0_Na3BINI1ZPDtCFfQiZQ",
      "rating": 4,
      "review_count": 1,
      "is_closed": false,
      "phone": "+13473659254",
      "categories": [
        "halal",
        "burgers",
        "sandwiches"
      ],
      "latitude": 40.6485152816777,
      "longitude": -73.95858969999999,
      "address": "942 Flatbush Ave, Brooklyn, NY 11226",
      "city": "Brooklyn",
      "state": "NY",
      "country": "US",
      "zip_code": "11226",
      "match": "manual"
    },
    {
      "id": "X7PpqZZAMBhtmzeUvzfa5g",
      "name": "Musaafer",
      "alias": "musaafer-new-york",
      "url": "https://www.yelp.com/biz/musaafer-new-york?adjust_creative=S0_Na3BINI1ZPDtCFfQiZQ&utm_campaign=yelp_api_v3&utm_medium=api_v3_business_lookup&utm_source=S0_Na3BINI1ZPDtCFfQiZQ",
      "rating": 4.4,
      "review_count": 27,
      "is_closed": false,
      "phone": null,
      "categories": [
        "indpak"
      ],
      "latitude": 40.71633827608144,
      "longitude": -74.0075569,
      "address": "133 Duane St, New York, NY 10013",
      "city": "New York",
      "state": "NY",
      "country": "US",
      "zip_code": "10013",
      "match": "manual"
    },
    {
      "id": "4RDXhgFz01o-En80f5nLag",
      "name": "Dar525",
      "alias": "dar525-new-york-2",
      "url": "https://www.yelp.com/biz/dar525-new-york-2?adjust_creative=S0_Na3BINI1ZPDtCFfQiZQ&utm_campaign=yelp_api_v3&utm_medium=api_v3_business_lookup&utm_source=S0_Na3BINI1ZPDtCFfQiZQ",
      "rating": 4.8,
      "review_count": 21,
      "is_closed": false,
      "phone": "+13472405387",
      "categories": [
        "mediterranean"
      ],
      "latitude": 40.68505,
      "longitude": -73.92934,
      "address": "231 Malcolm X Blvd, New York, NY 11221",
      "city": "New York",
      "state": "NY",
      "country": "US",
      "zip_code": "11221",
      "match": "manual"
    },
    {
      "id": "Ff7exq5KHZv5vusqjV1Egw",
      "name": "Flippin Buns",
      "alias": "flippin-buns-hicksville",
      "url": "https://www.yelp.com/biz/flippin-buns-hicksville?adjust_creative=S0_Na3BINI1ZPDtCFfQiZQ&utm_campaign=yelp_api_v3&utm_medium=api_v3_business_lookup&utm_source=S0_Na3BINI1ZPDtCFfQiZQ",
      "rating": 3,
      "review_count": 1,
      "is_closed": false,
      "phone": null,
      "categories": [
        "burgers"
      ],
      "latitude": 40.760747,
      "longitude": -73.516139,
      "address": "350 S Broadway, Hicksville, NY 11801",
      "city": "Hicksville",
      "state": "NY",
      "country": "US",
      "zip_code": "11801",
      "match": "manual"
    },
    {
      "id": "UZm-uCdkh7eWT8xWvHR3_g",
      "name": "Nebula Halal Food",
      "alias": "nebula-halal-food-new-york-city-4",
      "url": "https://www.yelp.com/biz/nebula-halal-food-new-york-city-4?adjust_creative=S0_Na3BINI1ZPDtCFfQiZQ&utm_campaign=yelp_api_v3&utm_medium=api_v3_business_lookup&utm_source=S0_Na3BINI1ZPDtCFfQiZQ",
      "rating": 4.5,
      "review_count": 2,
      "is_closed": false,
      "phone": "+12015518631",
      "categories": [
        "halal"
      ],
      "latitude": 40.7885817,
      "longitude": -73.9528797,
      "address": "1419 Madison Ave, New York City, NY 10029",
      "city": "New York City",
      "state": "NY",
      "country": "US",
      "zip_code": "10029",
      "match": "manual"
    },
    {
      "id": "nsN10ORqJDWVddvA9sZqlQ",
      "name": "Prime No. 7",
      "alias": "prime-no-7-queens-2",
      "url": "https://www.yelp.com/biz/prime-no-7-queens-2?adjust_creative=S0_Na3BINI1ZPDtCFfQiZQ&utm_campaign=yelp_api_v3&utm_medium=api_v3_business_lookup&utm_source=S0_Na3BINI1ZPDtCFfQiZQ",
      "rating": 4.3,
      "review_count": 9,
      "is_closed": false,
      "phone": "+17183508665",
      "categories": [
        "sushi",
        "bbq",
        "korean"
      ],
      "latitude": 40.75600356197369,
      "longitude": -73.92108265310526,
      "address": "34-19 Steinway St, Queens, NY 11101",
      "city": "Queens",
      "state": "NY",
      "country": "US",
      "zip_code": "11101",
      "match": "manual"
    },
    {
      "id": "yLcJTiE4n_w4sZwSfMZYZA",
      "name": "Bombay Kabab",
      "alias": "bombay-kabab-brooklyn",
      "url": "https://www.yelp.com/biz/bombay-kabab-brooklyn?adjust_creative=S0_Na3BINI1ZPDtCFfQiZQ&utm_campaign=yelp_api_v3&utm_medium=api_v3_business_lookup&utm_source=S0_Na3BINI1ZPDtCFfQiZQ",
      "rating": 4.1,
      "review_count": 117,
      "is_closed": false,
      "phone": "+13478897686",
      "categories": [
        "kebab",
        "indpak",
        "soup"
      ],
      "latitude": 40.67606,
      "longitude": -73.97455,
      "address": "54 7th Ave, Brooklyn, NY 11217",
      "city": "Brooklyn",
      "state": "NY",
      "country": "US",
      "zip_code": "11217",
      "match": "manual"
    }
  ]
}